metric,place,lat,lon
203,New York City,40.71455,-74.007124
654,San Francisco,37.7771187,-122.4196396
321,Santa Barbara,34.4193802,-119.6990509
1097,Tucson,32.22155,-110.9697571
121,Washington DC,38.8903694,-77.0319595